{"type": "FeatureCollection", "features": [{"type": "Feature", "geometry": {"type": "Point", "coordinates": [105.8036927, 21.0123599]}, "properties": {"Address": "S\u1ed1 nh\u00e0 28 P. Nguy\u1ec5n Th\u1ecb \u0110\u1ecbnh, Trung Ho\u00e0", "name": "Storm Lounge Coffee"}}, {"type": "Feature", "geometry": {"type": "Point", "coordinates": [105.8215767, 21.025653]}, "properties": {"Address": "146 P. Gi\u1ea3ng V\u00f5, Kim M\u00e3", "name": "G\u0103ng: pub & bistro"}}, {"type": "Feature", "geometry": {"type": "Point", "coordinates": [105.826773, 21.0105406]}, "properties": {"Address": "29 ng\u00e1ch 31 Ng. 167 P. T\u00e2y S\u01a1n, Quang Trung", "name": "Polygon Musik"}}, {"type": "Feature", "geometry": {"type": "Point", "coordinates": [105.8240082, 21.018249]}, "properties": {"Address": "m\u1eb7t \u0111\u01b0\u1eddng c\u1ea1nh, T\u1ea7ng 6, T\u00f2a nh\u00e0 H\u00e0 Th\u1ee7y, 36 Ho\u00e0ng C\u1ea7u, s\u1ed1 2 P. Mai Anh Tu\u1ea5n, Ch\u1ee3 D\u1eeba", "name": "La Lune Rooftop & Beer"}}, {"type": "Feature", "geometry": {"type": "Point", "coordinates": [105.8263763, 20.9979421]}, "properties": {"Address": "195 P. Nguy\u1ec5n Ng\u1ecdc N\u1ea1i, Kh\u01b0\u01a1ng Mai", "name": "Pub Game 2"}}, {"type": "Feature", "geometry": {"type": "Point", "coordinates": [105.8328434, 21.0160328]}, "properties": {"Address": "280 X\u00e3 \u0110\u00e0n, Qu\u1eadn \u0110\u1ed1ng \u0110a, TP. H\u00e0 N\u1ed9i Hanoi City", "name": "Marina Coffee Lounge"}}, {"type": "Feature", "geometry": {"type": "Point", "coordinates": [105.803623, 21.0124202]}, "properties": {"Address": "28 P. Nguy\u1ec5n Th\u1ecb \u0110\u1ecbnh, Trung Ho\u00e0", "name": "Memories Pub"}}, {"type": "Feature", "geometry": {"type": "Point", "coordinates": [105.8050983, 21.0100681]}, "properties": {"Address": "194 P. Ho\u00e0ng Ng\u00e2n, Trung Ho\u00e0", "name": "Bar Nineteen"}}, {"type": "Feature", "geometry": {"type": "Point", "coordinates": [105.8105743, 21.0288739]}, "properties": {"Address": "17 Ng. 535 P. Kim M\u00e3, Ng\u1ecdc Kh\u00e1nh", "name": "Rj Lounge"}}, {"type": "Feature", "geometry": {"type": "Point", "coordinates": [105.8100015, 21.0243755]}, "properties": {"Address": "54A \u0110. Nguy\u1ec5n Ch\u00ed Thanh, L\u00e1ng Th\u01b0\u1ee3ng", "name": "C\u00e1 Tr\u00ean Tr\u1eddi Pub"}}, {"type": "Feature", "geometry": {"type": "Point", "coordinates": [105.8315409, 21.0058645]}, "properties": {"Address": "2R4J+9J3, Kim Li\u00ean", "name": "M\u00e9t Beer club"}}, {"type": "Feature", "geometry": {"type": "Point", "coordinates": [105.8214768, 21.0036686]}, "properties": {"Address": "319 P. T\u00e2y S\u01a1n, Ng\u00e3 T\u01b0 S\u1edf", "name": "No1 Billiard Club"}}, {"type": "Feature", "geometry": {"type": "Point", "coordinates": [105.8311737, 21.0059419]}, "properties": {"Address": "A12 P. Kh\u01b0\u01a1ng Th\u01b0\u1ee3ng, Kh\u01b0\u01a1ng Th\u01b0\u1ee3ng", "name": "Happy or Sad Bar"}}, {"type": "Feature", "geometry": {"type": "Point", "coordinates": [105.834587, 21.0152034]}, "properties": {"Address": "Ph\u1ed1 Trung Ph\u1ee5ng, ng\u00f5 360 P. X\u00e3 \u0110\u00e0n, Th\u1ed5 Quan", "name": "2:Am Tea Pub"}}, {"type": "Feature", "geometry": {"type": "Point", "coordinates": [105.8048053, 21.0112813]}, "properties": {"Address": "2 Ng. 37 Nguy\u1ec5n Th\u1ecb \u0110\u1ecbnh, Trung Ho\u00e0", "name": "\uc220\uc9d1 BarBara"}}, {"type": "Feature", "geometry": {"type": "Point", "coordinates": [105.8243688, 21.0195179]}, "properties": {"Address": "14 Ng. 34 P. Ho\u00e0ng C\u1ea7u, Ch\u1ee3 D\u1eeba", "name": "Oor"}}, {"type": "Feature", "geometry": {"type": "Point", "coordinates": [105.8092083, 21.0291766]}, "properties": {"Address": "6 Ng. 575 P. Kim M\u00e3, Ng\u1ecdc Kh\u00e1nh", "name": "Chill bar"}}, {"type": "Feature", "geometry": {"type": "Point", "coordinates": [105.8293086, 21.0191363]}, "properties": {"Address": "8 P. \u00d4 Ch\u1ee3 D\u1eeba, Ch\u1ee3 D\u1eeba", "name": "HYBRA On Top"}}, {"type": "Feature", "geometry": {"type": "Point", "coordinates": [105.827647, 21.0008509]}, "properties": {"Address": "T\u00f2a nh\u00e0, T\u1ea7ng 6, 183 \u0110. Tr\u01b0\u1eddng Chinh", "name": "Queen Beer"}}, {"type": "Feature", "geometry": {"type": "Point", "coordinates": [105.8079859, 21.0292498]}, "properties": {"Address": "Ng. 629, Ng\u1ecdc Kh\u00e1nh", "name": "BAR STATION"}}]}